{
  "totalPages": 30,
  "currentPage": 1,
  "restaurants": [
    {
      "id": 72253,
      "name": "'香格里拉大酒店",
      "address": "72-100 Kaupulehu Dr.",
      "city": "上海",
      "state": "HI",
      "area": "Hawaii",
      "postal_code": "96740",
      "country": "US",
      "phone": "8083258000x",
      "lat": null,
      "lng": null,
      "price": null,
      "reserve_url": "http://www.opentable.com/single.aspx?rid=72253",
      "mobile_reserve_url": "http://mobile.opentable.com/opentable/?restId=72253",
      "image_url": "images/jd1.jpg"
    },
    {
      "id": 49108,
      "name": "IHG洲际酒店",
      "address": "1120 12th Ave",
      "city": "加拿大",
      "state": "HI",
      "area": "Hawaii",
      "postal_code": "96816",
      "country": "US",
      "phone": "8087329469",
      "lat": null,
      "lng": null,
      "price": null,
      "reserve_url": "http://www.opentable.com/single.aspx?rid=49108",
      "mobile_reserve_url": "http://mobile.opentable.com/opentable/?restId=49108",
      "image_url": "images/jd2.jpg"
    },
    {
      "id": 92827,
      "name": "万豪酒店Marriott",
      "address": "53 Ahui Street",
      "city": "Honolulu",
      "state": "HI",
      "area": "Hawaii",
      "postal_code": "96813",
      "country": "US",
      "phone": "8085365353x",
      "lat": null,
      "lng": null,
      "price": null,
      "reserve_url": "http://www.opentable.com/single.aspx?rid=92827",
      "mobile_reserve_url": "http://mobile.opentable.com/opentable/?restId=92827",
      "image_url": "images/jd3.jpg"
    },
    {
      "id": 39541,
      "name": "喜来登酒店集团",
      "address": "1857 S. King Street",
      "city": "Honolulu",
      "state": "HI",
      "area": "Hawaii",
      "postal_code": "96826",
      "country": "US",
      "phone": "8089492526x",
      "lat": null,
      "lng": null,
      "price": null,
      "reserve_url": "http://www.opentable.com/single.aspx?rid=39541",
      "mobile_reserve_url": "http://mobile.opentable.com/opentable/?restId=39541",
      "image_url": "images/jd4.jpg"
    },
    {
      "id": 102163,
      "name": "洲际酒店集团",
      "address": "580 N. Nimitz Hwy.",
      "city": "Honolulu",
      "state": "HI",
      "area": "Hawaii",
      "postal_code": "96817",
      "country": "US",
      "phone": "8085455959",
      "lat": null,
      "lng": null,
      "price": null,
      "reserve_url": "http://www.opentable.com/single.aspx?rid=102163",
      "mobile_reserve_url": "http://mobile.opentable.com/opentable/?restId=102163",
      "image_url": "images/jd5.jpg"
    },
    {
      "id": 76030,
      "name": "圣达特",
      "address": "2440 Hoonani Road",
      "city": "Koloa",
      "state": "HI",
      "area": "Hawaii",
      "postal_code": "96756",
      "country": "US",
      "phone": "8086341499x",
      "lat": null,
      "lng": null,
      "price": null,
      "reserve_url": "http://www.opentable.com/single.aspx?rid=76030",
      "mobile_reserve_url": "http://mobile.opentable.com/opentable/?restId=76030",
      "image_url": "images/jd6.jpg"
    },
    {
      "id": 13885,
      "name": "希尔顿大酒店",
      "address": "92-1001 Olani Street",
      "city": "Kapolei",
      "state": "HI",
      "area": "Hawaii",
      "postal_code": "96707",
      "country": "US",
      "phone": "8086790079x",
      "lat": null,
      "lng": null,
      "price": null,
      "reserve_url": "http://www.opentable.com/single.aspx?rid=13885",
      "mobile_reserve_url": "http://mobile.opentable.com/opentable/?restId=13885",
      "image_url": "images/jd7.jpg"
    },
    {
      "id": 28060,
      "name": "卡尔森",
      "address": "2259 Kalakaua Avenue",
      "city": "巴厘岛",
      "state": "HI",
      "area": "Hawaii",
      "postal_code": "96815",
      "country": "US",
      "phone": "8089317440x",
      "lat": null,
      "lng": null,
      "price": null,
      "reserve_url": "http://www.opentable.com/single.aspx?rid=28060",
      "mobile_reserve_url": "http://mobile.opentable.com/opentable/?restId=28060",
      "image_url": "images/jd8.jpg"
    },
    {
      "id": 87352,
      "name": "B's Bar & Grinds",
      "address": "66-197 Kamehameha Hwy",
      "city": "马尔代夫",
      "state": "HI",
      "area": "Hawaii",
      "postal_code": "96712",
      "country": "US",
      "phone": "8087444125",
      "lat": null,
      "lng": null,
      "price": null,
      "reserve_url": "http://www.opentable.com/single.aspx?rid=87352",
      "mobile_reserve_url": "http://mobile.opentable.com/opentable/?restId=87352",
      "image_url": "images/jd9.jpg"
    },
    {
      "id": 56422,
      "name": "锦江/锦江之星",
      "address": "30 Aulike St.",
      "city": "香港",
      "state": "HI",
      "area": "Hawaii",
      "postal_code": "96734",
      "country": "US",
      "phone": "8082627555",
      "lat": null,
      "lng": null,
      "price": null,
      "reserve_url": "http://www.opentable.com/single.aspx?rid=56422",
      "mobile_reserve_url": "http://mobile.opentable.com/opentable/?restId=56422",
      "image_url": "images/jd10.jpg"
    }
  ]
}